[{"Code":"ams","Name":"Amsterdam","Latitude": 52.3365   ,"Longitude": 4.93188   },
{"Code":"bom","Name":"Mumbai","Latitude": 19.11086  ,"Longitude": 72.9013   },
{"Code":"chi","Name":"Chicago","Latitude": 41.85368  ,"Longitude": -87.61835 },
{"Code":"dfw","Name":"Dallas","Latitude": 32.80094  ,"Longitude": -96.81953 },
{"Code":"dub","Name":"Dublin","Latitude": 53.33062  ,"Longitude": -6.36265  },
{"Code":"fra","Name":"Frankfurt","Latitude": 50.14387  ,"Longitude": 8.73993   },
{"Code":"hkg","Name":"Hong Kong","Latitude": 22.362284 ,"Longitude": 114.119218},
{"Code":"lax","Name":"Los Angeles","Latitude": 34.05851  ,"Longitude": -118.23591},
{"Code":"lon","Name":"London","Latitude": 51.52375  ,"Longitude": -0.63595  },
{"Code":"mad","Name":"Madrid","Latitude": 40.53618  ,"Longitude": -3.64873  },
{"Code":"mrs","Name":"Marseille","Latitude": 43.31078  ,"Longitude": 5.37366   },
{"Code":"muc","Name":"Munich","Latitude": 48.14653  ,"Longitude": 11.68224  },
{"Code":"nyc","Name":"New York","Latitude": 40.77907  ,"Longitude": -74.07238 },
{"Code":"osl","Name":"Oslo","Latitude": 59.93844  ,"Longitude": 10.83495  },
{"Code":"prg","Name":"Prague","Latitude": 50.06018  ,"Longitude": 14.48298  },
{"Code":"sao","Name":"Sao Paulo","Latitude": -23.545988,"Longitude": -46.635836},
{"Code":"sea","Name":"Seattle","Latitude": 47.61438  ,"Longitude": -122.3386 },
{"Code":"sin","Name":"Singapore","Latitude": 1.29532   ,"Longitude": 103.78986 },
{"Code":"sjc","Name":"San Jose","Latitude": 37.24189  ,"Longitude": -121.7816 },
{"Code":"slc","Name":"Salt Lake City","Latitude": 40.48002  ,"Longitude": -111.90581},
{"Code":"sto","Name":"Stockholm","Latitude": 59.39094  ,"Longitude": 17.87521  },
{"Code":"sxb","Name":"Strasbourg","Latitude": 48.56888  ,"Longitude": 7.78241   },
{"Code":"tyo","Name":"Tokyo","Latitude": 35.70876  ,"Longitude": 139.74392 },
{"Code":"was","Name":"Washington DC","Latitude": 39.02126  ,"Longitude": -77.45178 },
{"Code":"waw","Name":"Warsaw","Latitude": 52.1905   ,"Longitude": 20.92211  },
{"Code":"ymq","Name":"Montreal","Latitude": 45.49888  ,"Longitude": -73.56451 },
{"Code":"yto","Name":"Toronto","Latitude": 43.64455  ,"Longitude": -79.38435 }
]
